     2.11           OBSERVATION DATA    G (GPS)             RINEX VERSION / TYPE
teqc  2019Feb12                         20211215 00:27:56UTCPGM / RUN BY / DATE
ZIMM                                                        MARKER NAME
14001M004                                                   MARKER NUMBER
TRIMBLE NETR9       SWISSTOPO                               OBSERVER / AGENCY
5429R49141          TRIMBLE NETR9       5.45                REC # / TYPE / VERS
99390               TRM29659.00     NONE                    ANT # / TYPE
  4331297.3480   567555.6390  4633133.7280                  APPROX POSITION XYZ
        0.0000        0.0000        0.0000                  ANTENNA: DELTA H/E/N
     1     1                                                WAVELENGTH FACT L1/2
    10    C1    L1    S1    C2    L2    S2    P2    C5    L5# / TYPES OF OBSERV
          S5                                                # / TYPES OF OBSERV
    30.0000                                                 INTERVAL
Linux 2.4.21-27.ELsmp|Opteron|gcc -static|Linux 64|=+       COMMENT
     2.11           OBSERVATION DATA    M (MIXED)           COMMENT
NetR9 5.45          Receiver Operator   20211214 000000 UTC COMMENT
L2C CARRIER PHASE MEASUREMENTS: PHASE SHIFTS REMOVED        COMMENT
L2C PHASE MATCHES L2 P PHASE                                COMMENT
GLONASS C/A & P PHASE MATCH: PHASE SHIFTS REMOVED           COMMENT
Forced Modulo Decimation to 30 seconds                      COMMENT
teqc edited: all GLONASS satellites excluded                COMMENT
teqc edited: all Galileo satellites excluded                COMMENT
  2021    12    14     0     0    0.0000000     GPS         TIME OF FIRST OBS
                                                            END OF HEADER
 21 12 14  0  0  0.0000000  0 10G16G21G15G08G26G18G23G07G10G27
  20935171.703 9 110015093.338 9        49.900                    85726035.56649
        43.300    20935174.70349
  24144903.773 5 126882325.277 5        36.300                    98869358.86045
        19.300    24144908.31645
  24551326.016 5 129018143.529 5        35.500    24551329.715 3 100533585.40747
        26.800    24551328.84047
  22272903.328 8 117044903.415 8        45.400    22272910.445 8  91203868.91349
        35.300    22272909.16049  22272906.145 5  87403657.473 5        37.100
  22883876.688 7 120255574.042 7        43.500    22883883.680 7  93705675.97049
        42.200    22883883.36349  22883879.629 4  89801257.816 4        34.400
  22833515.320 7 119990946.373 7        42.200    22833520.102 7  93499466.06948
        31.500    22833520.04348  22833520.945 5  89603616.108 5        35.100
  21365018.117 9 112273944.682 9        48.500    21365022.762 9  87486206.85549
        39.900    21365022.00049  21365023.465 6  83840953.116 6        39.900
  24649196.852 6 129532392.533 6        38.700    24649201.695 5 100934334.04146
        23.000    24649201.16446
  21541755.219 9 113202688.699 9        52.200    21541761.961 9  88209924.86749
        55.100    21541761.87149  21541757.227 6  84534432.533 6        40.200
  20452768.516 9 107480084.418 9        52.300    20452774.699 9  83750728.66549
        54.900    20452774.27049  20452771.270 7  80261044.102 7        42.400
 21 12 14  0  0 30.0000000  0 10G16G21G15G08G26G18G23G07G10G27
  20944515.563 9 110064197.424 9        50.100                    85764298.48349
        43.000    20944519.01649
  24128278.313 5 126794960.117 5        36.900                    98801282.14446
        20.600    24128283.52046
  24551221.500 5 129017598.420 5        36.700    24551224.012 2 100533160.66447
        27.600    24551224.21947
  22257919.563 8 116966163.503 8        46.200    22257926.441 8  91142513.14149
        35.500    22257925.41849  22257922.832 5  87344858.188 5        37.900
  22903350.359 7 120357910.731 7        42.900    22903357.680 7  93785418.83349
        42.300    22903357.34049  22903353.867 5  89877678.018 5        35.300
  22850684.609 7 120081167.832 7        43.200    22850688.590 7  93569768.48948
        30.000    22850688.05548  22850689.926 5  89670989.265 5        35.600
  21367729.711 9 112288196.701 9        48.300    21367734.879 9  87497312.33049
        40.400    21367734.12949  21367735.668 6  83851595.873 6        39.500
  24647517.445 6 129523565.995 6        38.700    24647521.328 6 100927456.16046
        22.800    24647521.19546
  21531345.031 9 113147981.827 9        52.500    21531351.348 9  88167296.14649
        55.100    21531351.38349  21531347.008 6  84493580.005 6        39.800
  20446771.984 9 107448572.817 9        52.600    20446778.242 9  83726174.17549
        55.000    20446777.75449  20446774.898 7  80237512.681 7        42.600
 21 12 14  0  1  0.0000000  0 10G16G21G15G08G26G18G23G07G10G27
  20953962.867 9 110113840.259 9        50.000                    85802981.20149
        43.100    20953965.66849
  24111687.773 5 126707773.897 5        37.500                    98733344.86245
        19.600    24111692.08245
  24551227.273 5 129017631.979 5        37.100    24551231.430 2 100533186.78547
        25.300    24551231.20347
  22242971.203 8 116887611.055 8        46.400    22242978.547 8  91081303.45149
        35.500    22242977.44149  22242974.621 6  87286198.911 6        38.100
  22922864.984 7 120460462.015 7        42.300    22922872.832 7  93865328.92249
        42.000    22922872.12549  22922868.633 5  89954258.503 5        35.300
  22867879.055 7 120171529.198 7        42.900    22867883.813 7  93640179.93848
        30.300    22867883.02748  22867884.996 5  89738466.908 5        35.100
  21370557.336 9 112303055.306 9        48.500    21370562.277 9  87508890.48049
        39.900    21370561.91849  21370563.313 6  83862691.580 6        40.000
  24645935.656 6 129515254.462 6        40.600    24645940.418 6 100920979.66146
        24.100    24645939.97746
  21521029.508 9 113093773.762 9        51.800    21521036.078 9  88125056.11249
        55.700    21521035.98449  21521031.930 6  84453099.958 6        40.000
  20440846.109 9 107417432.293 9        52.800    20440852.563 9  83701908.83249
        55.500    20440851.91049  20440849.160 7  80214258.397 7        42.800
 21 12 14  0  1 30.0000000  0 10G16G21G15G08G26G18G23G07G10G27
  20963511.445 9 110164020.284 9        49.300                    85842082.50849
        42.700    20963514.79749
  24095130.625 5 126620767.197 5        36.900                    98665547.43846
        20.400    24095134.89146
  24551344.086 5 129018244.687 5        37.100    24551347.645 3 100533664.17947
        26.000    24551347.89147
  22228059.117 8 116809246.898 8        46.300    22228066.039 8  91020240.46949
        35.900    22228064.96149  22228062.176 5  87227680.221 5        37.600
  22942420.875 7 120563225.261 7        43.200    22942428.305 7  93945404.16949
        42.300    22942427.45349  22942423.801 4  90030997.266 4        34.900
  22885101.055 7 120262028.577 7        43.000    22885105.441 7  93710698.91748
        31.400    22885104.85948  22885106.918 5  89806047.566 5        35.200
  21373500.211 9 112318519.541 9        48.900    21373504.918 9  87520940.53649
        39.900    21373504.44549  21373505.695 6  83874239.559 6        39.900
  24644451.922 6 129507458.033 6        39.000    24644456.453 5 100914904.50646
        22.600    24644456.13346
  21510809.227 9 113040066.014 9        52.100    21510815.715 9  88083205.93149
        55.100    21510815.64849  21510811.344 6  84412993.567 6        39.800
  20434991.164 9 107386663.607 9        52.000    20434997.512 9  83677933.22849
        54.900    20434996.82049  20434993.969 7  80191281.797 7        42.800
 21 12 14  0  2  0.0000000  0 10G16G21G15G08G26G18G23G07G10G27
  20973162.453 9 110214736.269 9        49.400                    85881601.44849
        43.000    20973165.53949
  24078608.266 6 126533940.728 6        38.200                    98597890.52045
        19.900    24078611.96145
  24551571.055 5 129019436.824 5        36.000    24551574.617 4 100534593.12147
        27.500    24551574.08647
  22213183.117 8 116731072.763 8        46.700    22213190.133 8  90959325.56449
        35.800    22213188.94149  22213185.785 5  87169303.452 5        37.400
  22962015.281 7 120666198.163 7        42.700    22962023.023 7  94025642.77449
        42.400    22962022.81649  22962018.766 4  90107892.600 4        34.300
  22902348.383 7 120352664.554 7        42.600    22902353.004 8  93781324.33648
        30.800    22902352.67248  22902353.984 5  89873730.242 5        35.000
  21376558.016 9 112334588.834 9        48.200    21376562.895 9  87533462.07249
        40.100    21376562.18049  21376563.582 6  83886239.396 6        40.200
  24643067.469 7 129500176.387 7        41.000    24643070.594 5 100909230.49446
        23.200    24643070.39546
  21500684.602 9 112986860.444 9        52.000    21500690.906 9  88041747.06049
        55.100    21500690.93849  21500686.570 6  84373262.141 6        40.500
  20429206.883 9 107356267.982 9        53.300    20429213.352 9  83654248.32949
        55.000    20429212.52049  20429209.809 7  80168583.755 7        42.600
 21 12 14  0  2 30.0000000  0 10G16G21G15G08G26G18G23G07G10G27
  20982915.016 9 110265986.591 9        49.900                    85921536.75349
        42.600    20982918.25849
  24062119.563 5 126447294.977 5        36.500                    98530374.45745
        19.900    24062124.70345
  24551908.922 5 129021208.926 5        36.100    24551912.434 5 100535973.99847
        29.100    24551911.54347
  22198343.508 8 116653089.622 8        46.800    22198350.387 8  90898559.47249
        36.000    22198349.13349  22198346.465 6  87111069.256 6        38.100
  22981649.992 7 120769377.977 7        43.200    22981657.492 7  94106042.61949
        42.000    22981657.18049  22981653.113 4  90184942.469 4        34.800
  22919621.195 7 120443435.194 7        42.600    22919625.813 7  93852054.66747
        29.600    22919625.42647  22919627.012 4  89941513.495 4        34.800
  21379731.133 9 112351262.203 9        49.200    21379735.855 9  87546454.31149
        40.400    21379735.21149  21379736.188 6  83898690.299 6        40.400
  24641779.016 6 129493409.377 6        40.400    24641783.313 5 100903957.47246
        23.500    24641782.46546
  21490655.414 9 112934158.453 9        52.000    21490661.930 9  88000680.58249
        55.200    21490661.91449  21490657.586 6  84333906.752 6        40.100
  20423494.195 9 107326246.121 9        52.800    20423500.254 9  83630854.67249
        55.100    20423499.69949  20423496.863 7  80146164.850 7        43.000
 21 12 14  0  3  0.0000000  0 10G16G21G15G08G26G18G23G07G10G27
  20992769.164 9 110317769.960 9        50.200                    85961887.42749
        43.000    20992772.27349
  24045665.617 5 126360830.688 5        37.300                    98462999.66946
        21.100    24045670.51646
  24552355.820 4 129023561.368 4        34.000    24552359.613 5 100537807.11447
        27.200    24552359.15247
  22183540.609 8 116575299.322 8        46.000    22183547.586 8  90837943.66149
        36.500    22183546.50449  22183543.941 6  87052979.140 6        38.500
  23001323.828 7 120872762.459 7        43.700    23001330.605 7  94186601.94749
        41.200    23001330.12949  23001326.465 5  90262145.151 5        35.000
  22936920.250 7 120534339.103 7        43.200    22936924.289 7  93922888.86448
        30.700    22936923.83648  22936925.105 4  90009396.206 4        34.000
  21383018.758 9 112368539.051 9        49.700    21383023.336 9  87559916.79249
        40.100    21383022.83649  21383024.105 6  83911591.819 6        39.600
  24640589.117 6 129487156.759 6        38.900    24640593.480 5 100899085.28646
        21.800    24640592.87546
  21480722.867 9 112881961.808 9        51.800    21480729.453 9  87960007.88149
        55.000    21480729.33249  21480725.129 6  84294928.765 6        40.100
  20417852.633 9 107296599.214 9        53.100    20417858.895 9  83607753.18849
        54.900    20417858.03149  20417855.344 7  80124025.920 7        42.600
 21 12 14  0  3 30.0000000  0 10G16G21G15G08G26G18G23G07G10G27
  21002724.453 9 110370085.963 9        49.800                    86002653.13849
        43.300    21002727.67649
  24029248.070 6 126274549.326 6        39.500                    98395767.58746
        22.500    24029251.77746
  24552914.242 3 129026495.44813        32.400    24552917.871 5 100540093.46257
        26.700    24552917.81347
  22168774.648 8 116497703.854 8        46.100    22168781.633 9  90777479.66349
        35.800    22168780.91049  22168777.500 6  86995034.454 6        38.100
  23021035.500 7 120976350.166 7        43.400    23021043.324 7  94267319.63449
        41.600    23021042.64849  23021039.004 4  90339499.638 4        34.300
  22954243.633 7 120625375.698 7        43.900    22954248.168 7  93993826.45548
        31.400    22954247.67248  22954249.293 5  90077378.122 5        35.300
  21386421.422 9 112386419.630 9        48.900    21386425.945 9  87573849.72749
        39.900    21386425.18449  21386426.629 6  83924944.242 6        39.600
  24639497.188 6 129481419.134 6        39.900    24639501.711 6 100894614.41746
        22.900    24639500.82446
  21470886.938 9 112830273.231 9        52.500    21470893.492 9  87919731.08249
        54.900    21470893.47749  21470888.918 6  84256330.181 6        40.100
  20412282.648 9 107267329.346 9        53.200    20412288.637 9  83584945.50049
        55.000    20412288.22749  20412285.297 7  80102168.567 7        43.000
 21 12 14  0  4  0.0000000  0 10G16G21G15G08G26G18G23G07G10G27
  21012780.469 9 110422931.730 9        49.400                    86043831.64749
        42.800    21012783.71949
  24012862.141 5 126188450.593 5        36.300                    98328677.64945
        19.000    24012867.09845
  24553585.188 1 129030010.58611        30.800    24553587.191 5 100542832.63356
        24.700    24553586.60246
  22154045.438 8 116420303.286 8        45.900    22154052.773 8  90717167.54049
        36.600    22154052.11349  22154048.434 5  86937235.341 5        37.900
  23040784.891 7 121080137.166 7        43.100    23040792.711 7  94348192.59749
        41.200    23040792.58649  23040789.328 4  90417002.892 4        34.500
  22971592.000 7 120716541.863 7        43.100    22971596.750 7  94064865.01248
        30.500    22971596.37148  22971597.402 5  90145456.747 5        35.200
  21389938.250 9 112404901.638 9        49.200    21389942.934 9  87588251.29849
        40.200    21389942.29749  21389943.320 6  83938745.725 6        39.400
  24638503.188 6 129476195.109 6        39.500    24638506.789 5 100890543.72446
        22.800    24638506.28146
  21461147.547 9 112779092.868 9        51.900    21461154.195 9  87879850.28849
        55.100    21461153.93449  21461149.609 6  84218111.065 6        40.100
  20406784.336 9 107238435.993 9        52.600    20406790.676 9  83562431.19549
        54.900    20406790.02049  20406787.176 7  80080592.353 7        42.600
 21 12 14  0  4 30.0000000  0 10G16G21G15G08G26G18G23G07G10G27
  21022937.023 9 110476305.511 9        49.600                    86085421.59849
        42.700    21022940.49649
  23996513.445 6 126102535.061 6        38.900                    98261730.53346
        22.200    23996518.55146
  24554361.461 3 129034106.46313        32.600    24554366.578 5 100546024.30657
        25.800    24554365.99247
  22139354.336 8 116343098.913 8        46.400    22139361.305 8  90657008.29349
        36.900    22139360.55549  22139356.793 6  86879582.740 6        38.000
  23060572.625 7 121184121.008 7        42.900    23060580.789 7  94429218.95449
        40.700    23060579.62949  23060576.887 5  90494653.169 5        35.400
  22988964.844 7 120807836.099 7        43.000    22988969.289 7  94136003.35948
        30.500    22988968.98048  22988970.430 4  90213631.002 4        34.900
  21393569.547 9 112423984.237 9        48.700    21393574.238 9  87603120.86049
        39.900    21393573.72349  21393574.867 6  83952995.715 6        40.200
  24637606.648 6 129471484.309 6        39.400    24637610.480 5 100886872.97546
        22.600    24637609.53146
  21451505.313 9 112728422.318 9        51.700    21451511.707 9  87840366.75849
        54.900    21451511.72749  21451507.328 6  84180272.709 6        39.600
  20401357.977 9 107209920.189 9        52.500    20401364.387 9  83540211.10249
        55.300    20401363.54349  20401360.648 7  80059298.084 7        42.500
 21 12 14  0  5  0.0000000  0 10G16G21G15G08G26G18G23G07G10G27
  21033194.516 9 110530206.523 9        50.100                    86127422.38049
        42.700    21033197.68449
  23980200.055 5 126016803.720 5        37.700                    98194926.93046
        21.300    23980203.59046
  24555251.313 3 129038783.899 3        33.700    24555256.129 4 100549669.10147
        27.000    24555256.39147
  22124699.930 8 116266092.729 8        46.400    22124707.285 8  90597003.46849
        36.800    22124706.51249  22124703.367 6  86822078.119 6        38.100
  23080397.836 7 121288299.560 7        43.100    23080405.211 7  94510397.05349
        41.000    23080404.48849  23080400.922 4  90572448.797 4        34.100
  23006361.625 7 120899257.101 7        42.400    23006365.809 7  94207240.46747
        29.800    23006365.72347  23006367.391 5  90281899.885 5        35.300
  21397314.938 9 112443666.938 9        48.700    21397319.785 9  87618458.03349
        39.800    21397319.15249  21397320.234 6  83967693.847 6        39.300
  24636807.031 6 129467286.982 6        38.100    24636811.797 5 100883602.32546
        21.500    24636811.18046
  21441960.453 9 112678263.493 9        51.900    21441967.000 9  87801281.96449
        55.000    21441966.90649  21441962.863 6  84142816.456 6        40.100
  20396003.734 9 107181783.277 9        52.200    20396009.996 9  83518286.22949
        55.000    20396009.26249  20396006.426 7  80038286.764 7        42.500
 21 12 14  0  5 30.0000000  0 10G16G21G15G08G26G18G23G07G10G27
  21043551.656 9 110584633.146 9        50.000                    86169832.72549
        42.500    21043554.69149
  23963920.898 6 125931257.209 6        38.700                    98128267.36046
        22.000    23963925.35246
  24556253.000 5 129044043.311 5        35.200    24556257.125 4 100553767.36247
        27.100    24556256.68847
  22110084.547 8 116189285.857 8        46.400    22110091.645 8  90537153.97049
        35.900    22110090.34449  22110087.645 6  86764722.323 6        38.100
  23100258.523 7 121392670.558 7        42.100    23100266.203 7  94591725.09049
        40.900    23100265.81649  23100261.934 4  90650388.158 4        34.300
  23023781.805 7 120990803.519 7        41.700    23023786.887 7  94278575.31647
        29.500    23023786.09047  23023787.934 5  90350262.420 5        35.100
  21401174.305 9 112463949.033 9        48.300    21401179.195 9  87634262.27249
        39.400    21401178.52749  21401179.879 6  83982839.582 6        40.400
  24636106.438 6 129463602.965 6        38.000    24636111.078 6 100880731.64746
        22.000    24636110.84046
  21432513.367 9 112628618.165 9        52.900    21432519.664 9  87762597.30649
        54.900    21432519.56349  21432515.520 6  84105743.642 6        40.400
  20390721.820 9 107154026.425 9        52.400    20390728.082 9  83496657.52149
        54.900    20390727.28949  20390724.527 7  80017559.239 7        43.300
 21 12 14  0  6  0.0000000  0 10G16G21G15G08G26G18G23G07G10G27
  21054008.406 9 110639583.815 9        49.800                    86212651.41249
        42.400    21054011.48049
  23947677.766 6 125845896.301 6        39.300                    98061752.37046
        21.500    23947680.77746
  24557364.625 5 129049884.988 5        37.600    24557366.852 1 100558319.31847
        25.600    24557367.95347
  22095507.016 8 116112679.683 8        46.300    22095513.691 8  90477460.83749
        36.100    22095512.68849  22095509.414 6  86707516.442 6        38.400
  23120156.102 7 121497231.508 7        42.900    23120163.527 7  94673201.13449
        40.400    23120162.99649  23120158.789 3  90728469.400 3        33.800
  23041226.656 7 121082473.714 7        42.300    23041231.109 7  94350006.61547
        29.500    23041230.91047  23041232.117 4  90418717.370 4        34.700
  21405147.945 9 112484829.573 9        49.000    21405152.594 9  87650532.82249
        39.800    21405152.20349  21405153.797 6  83998432.182 6        40.100
  24635502.961 6 129460431.808 6        38.400    24635507.902 6 100878260.60946
        22.000    24635507.12146
  21423163.836 9 112579487.819 9        51.200    21423170.516 9  87724313.93049
        55.000    21423170.35249  21423166.285 6  84069055.402 6        40.100
  20385512.281 9 107126650.589 9        52.200    20385518.430 9  83475325.69449
        55.000    20385517.70349  20385515.141 7  79997116.273 7        42.900
 21 12 14  0  6 30.0000000  0 10G16G21G15G08G26G18G23G07G10G27
  21064564.461 9 110695058.147 9        49.400                    86255878.15649
        42.800    21064567.89849
  23931469.000 6 125760722.189 6        38.300                    97995383.02946
        22.200    23931473.76246
  24558587.461 5 129056310.084 5        37.100    24558590.359 1 100563325.84847
        25.200    24558591.02047
  22080967.953 8 116036276.869 8        46.000    22080974.734 8  90417926.18749
        36.800    22080973.91449  22080970.637 6  86650462.390 6        38.700
  23140089.242 7 121601980.995 7        42.300    23140096.887 7  94754824.11349
        40.300    23140096.19949  23140092.230 3  90806691.417 3        33.700
  23058693.680 7 121174267.266 7        41.300    23058699.105 7  94421534.01748
        30.000    23058698.74248  23058699.523 4  90487264.486 4        34.500
  21409235.469 9 112506308.736 9        48.600    21409240.063 9  87667269.84449
        39.900    21409239.58249  21409240.793 6  84014471.822 6        39.200
  24634997.750 6 129457774.389 6        39.000    24635001.750 5 100876189.88246
        22.200    24635000.47746
  21413913.273 9 112530875.119 9        52.600    21413920.000 9  87686433.91549
        54.900    21413919.75449  21413915.242 6  84032753.720 6        40.400
  20380375.797 9 107099657.887 9        53.500    20380381.906 9  83454292.42349
        55.100    20380381.34449  20380378.566 7  79976959.374 7        42.600
 21 12 14  0  7  0.0000000  0 10G16G21G15G08G26G18G23G07G10G27
  21075219.750 9 110751052.291 9        50.200                    86299509.94749
        42.800    21075223.18849
  23915296.438 6 125675734.531 6        38.700                    97929158.90746
        22.200    23915300.14146
  24559921.188 5 129063316.990 5        37.700    24559923.375 1 100568785.78946
        23.000    24559923.61746
  22066467.484 8 115960076.640 8        46.000    22066474.574 8  90358549.39549
        36.300    22066473.50849  22066470.328 6  86593559.642 6        38.600
  23160057.289 7 121706914.685 7        41.300    23160064.977 7  94836590.60249
        40.000    23160064.46149  23160060.484 4  90885050.930 4        34.400
  23076185.203 7 121266180.665 7        41.700    23076189.703 7  94493154.82448
        30.000    23076189.17648  23076189.906 4  90555901.123 4        34.200
  21413435.664 9 112528383.628 9        48.100    21413440.539 9  87684471.06449
        40.100    21413440.04749  21413441.211 6  84030956.344 6        39.400
  24634588.805 5 129455628.492 5        37.500    24634593.371 5 100874517.73246
        22.000    24634592.60246
  21404760.984 9 112482779.604 9        51.600    21404767.340 9  87648956.89149
        55.100    21404767.43449  21404763.141 7  83996838.243 7        41.000
  20375311.781 9 107073047.343 9        51.600    20375318.285 9  83433556.93849
        55.200    20375317.58649  20375314.574 7  79957087.858 7        42.700
 21 12 14  0  7 30.0000000  0 10G16G21G15G08G26G18G23G07G10G27
  21085974.117 9 110807565.309 9        49.200                    86343546.05949
        42.400    21085977.19149
  23899158.891 5 125590934.382 5        37.700                    97863080.90646
        21.100    23899164.34046
  24561364.672 5 129070906.734 5        37.100    24561368.563 2 100574699.89346
        24.900    24561368.94946
  22052005.727 8 115884081.426 8        45.700    22052012.996 8  90299332.34749
        36.600    22052012.10249  22052008.816 6  86536809.936 6        38.400
  23180060.805 7 121812030.692 7        41.800    23180067.891 7  94918499.17549
        39.900    23180067.40249  23180063.223 3  90963546.668 3        33.500
  23093697.555 7 121358213.073 7        41.100    23093702.465 7  94564868.36847
        28.600    23093701.81347  23093703.836 4  90624626.578 4        34.800
  21417750.203 9 112551053.960 9        48.800    21417754.887 9  87702136.26549
        39.900    21417753.94549  21417755.301 6  84047885.504 6        39.400
  24634277.641 5 129453994.096 5        37.100    24634281.777 5 100873244.15846
        21.300    24634281.13346
  21395707.648 9 112435203.442 9        51.700    21395713.895 9  87611884.56349
        55.100    21395713.71149  21395709.938 6  83961310.597 6        40.600
  20370321.195 9 107046820.621 9        52.300    20370327.402 9  83413120.53149
        55.100    20370326.79349  20370323.902 7  79937502.982 7        43.000
 21 12 14  0  8  0.0000000  0 10G16G21G15G08G26G18G23G07G10G27
  21096826.578 9 110864596.957 9        48.900                    86387986.29149
        42.100    21096830.02049
  23883058.383 6 125506322.861 6        38.500                    97797149.90146
        22.800    23883062.59446
  24562919.727 6 129079079.700 6        38.200    24562924.164 3 100581068.44547
        26.400    24562923.16447
  22037583.781 8 115808292.782 8        46.200    22037591.293 8  90240276.27149
        36.500    22037590.26649  22037586.824 6  86480214.573 6        38.100
  23200097.367 7 121917327.221 7        41.100    23200105.582 7  95000548.41049
        40.400    23200104.80949  23200100.992 3  91042177.183 3        33.200
  23111233.336 6 121450363.539 6        40.500    23111238.418 7  94636673.90147
        28.800    23111237.66447  23111239.727 5  90693440.206 5        35.000
  21422177.383 9 112574319.318 9        48.400    21422181.902 9  87720265.12449
        39.800    21422181.34049  21422182.641 6  84065258.992 6        39.400
  24634064.156 5 129452871.464 5        37.900    24634068.391 5 100872369.39146
        21.500    24634067.55146
  21386753.484 9 112388148.700 9        52.100    21386759.859 9  87575218.54249
        55.000    21386759.75849  21386755.430 6  83926172.343 6        40.600
  20365403.703 9 107020979.298 9        52.300    20365409.953 9  83392984.43149
        55.100    20365409.45749  20365406.590 7  79918205.855 7        43.000
 21 12 14  0  8 30.0000000  0 10G16G21G15G08G26G18G23G07G10G27
  21107777.852 9 110922145.064 9        49.100                    86432828.95649
        42.500    21107781.08249
  23866993.383 6 125421900.192 6        38.700                    97731366.08446
        22.300    23866997.51646
  24564586.172 5 129087835.797 5        37.100    24564590.289 3 100587891.41847
        27.000    24564589.92247
  22023201.594 8 115732712.375 8        46.700    22023208.570 8  90181382.46649
        37.300    22023207.76649  22023204.203 6  86423774.665 6        38.400
  23220168.727 7 122022801.558 7        41.300    23220176.391 7  95082736.19849
        39.900    23220175.66849  23220172.066 3  91120940.484 3        33.700
  23128791.836 7 121542630.313 7        42.100    23128795.949 7  94708570.05548
        30.100    23128795.77348  23128797.305 4  90762340.675 4        34.600
  21426717.469 9 112598178.510 9        48.400    21426722.109 9  87738856.70749
        39.400    21426721.62549  21426722.891 6  84083075.930 6        39.800
  24633948.484 6 129452260.244 6        38.200    24633952.609 5 100871893.07046
        23.000    24633952.61346
  21377898.469 9 112341616.672 9        51.600    21377904.863 9  87538959.82349
        55.000    21377904.99249  21377900.754 6  83891424.403 6        40.100
  20360559.742 9 106995524.146 9        52.900    20360565.852 9  83373149.25049
        55.100    20360565.36349  20360562.594 7  79899197.166 7        43.100
 21 12 14  0  9  0.0000000  0 10G16G21G15G08G26G18G23G07G10G27
  21118826.773 9 110980207.474 9        49.900                    86478072.38749
        41.800    21118829.96149
  23850964.125 6 125337667.153 6        39.800                    97665729.91346
        23.200    23850969.64546
  24566364.250 6 129097175.058 6        39.900    24566367.266 3 100595168.74847
        28.000    24566367.12947
  22008858.430 8 115657341.147 8        47.000    22008866.012 8  90122651.64249
        37.300    22008864.91849  22008861.973 6  86367490.971 6        38.400
  23240272.977 7 122128451.119 7        41.000    23240280.098 7  95165060.51249
        39.400    23240280.14549  23240276.238 3  91199834.600 3        33.400
  23146371.203 7 121635011.620 7        41.400    23146376.051 7  94780555.47047
        28.600    23146375.14847  23146376.512 4  90831326.733 4        34.500
  21431370.648 9 112622630.261 9        48.400    21431375.340 9  87757910.03149
        39.000    21431374.50849  21431375.945 6  84101335.366 6        39.500
  24633928.578 5 129452159.577 5        37.300    24633932.973 5 100871814.63146
        21.500    24633932.70346
  21369143.445 9 112295608.517 9        52.500    21369149.848 9  87503109.32349
        55.000    21369149.73049  21369145.449 6  83857067.680 6        40.600
  20355789.539 9 106970455.940 9        53.100    20355795.797 9  83353615.58649
        55.200    20355795.17649  20355792.117 7  79880477.405 7        42.800
 21 12 14  0  9 30.0000000  0 10G16G21G15G08G26G18G23G07G10G27
  21129973.336 9 111038782.649 9        49.300                    86523715.37049
        42.500    21129976.62549
  23834971.117 6 125253623.954 6        39.900                    97600241.77846
        21.500    23834975.62146
  24568251.484 6 129107097.370 6        38.900    24568255.141 4 100602900.46447
        28.500    24568254.59447
  21994556.211 8 115582180.636 8        46.600    21994563.055 8  90064085.02849
        37.000    21994562.04349  21994559.238 6  86311364.627 6        38.600
  23260410.258 6 122234273.238 6        40.700    23260418.063 7  95247519.30549
        39.000    23260417.50449  23260413.820 3  91278857.647 3        33.300
  23163971.102 6 121727506.042 6        39.900    23163977.219 7  94852629.02547
        28.100    23163975.98047  23163977.887 4  90900397.181 4        34.700
  21436135.945 9 112647673.497 9        48.300    21436140.703 9  87777424.24649
        39.700    21436140.18449  21436141.797 6  84120036.489 6        39.500
  24634006.211 5 129452569.195 5        37.200    24634011.324 5 100872133.82046
        21.700    24634010.70746
  21360488.313 9 112250125.676 9        52.300    21360494.840 9  87467668.16549
        54.900    21360494.60249  21360490.531 6  83823103.251 6        40.900
  20351092.938 9 106945775.589 9        53.200    20351099.078 9  83334384.14749
        55.400    20351098.66849  20351095.605 7  79862047.283 7        42.900
 21 12 14  0 10  0.0000000  0 10G16G21G15G08G26G18G23G07G10G27
  21141217.172 9 111097869.215 9        48.900                    86569756.84349
        42.100    21141220.47749
  23819014.594 6 125169771.391 6        40.200                    97534902.18646
        22.600    23819019.66446
  24570251.992 6 129117603.013 6        38.800    24570254.523 4 100611086.70047
        28.400    24570254.12147
  21980294.055 8 115507232.447 8        47.300    21980301.023 8  90005683.83649
        37.600    21980299.93049  21980296.785 6  86255396.852 6        38.800
  23280579.461 6 122340265.874 6        40.800    23280587.938 7  95330110.95449
        38.100    23280587.12149  23280583.340 3  91358007.957 3        33.800
  23181594.930 7 121820112.316 7        41.400    23181599.832 7  94924789.70647
        29.400    23181598.90647  23181600.523 5  90969551.164 5        35.000
  21441014.023 8 112673307.454 8        47.600    21441018.766 9  87797398.75649
        39.300    21441018.32049  21441020.023 6  84139178.717 6        40.000
  24634181.109 5 129453488.802 5        37.600    24634185.402 5 100872850.38946
        21.500    24634185.28946
  21351933.648 9 112205169.878 9        52.900    21351940.086 9  87432637.68149
        55.000    21351939.89549  21351935.789 7  83789532.328 7        41.100
  20346470.328 9 106921484.411 9        52.800    20346476.770 9  83315455.95849
        55.000    20346476.06649  20346473.297 7  79843907.780 7        42.600
 21 12 14  0 10 30.0000000  0 10G16G21G15G08G26G18G23G07G10G27
  21152557.555 9 111157465.042 9        49.200                    86616195.13849
        41.800    21152560.91849
  23803094.359 6 125086110.409 6        39.400                    97469711.87646
        22.200    23803098.56646
  24572361.305 5 129128692.248 5        37.100    24572364.242 4 100619727.67547
        28.600    24572364.88747
  21966072.375 8 115432497.766 8        47.000    21966079.793 8  89947449.02949
        37.700    21966078.35249  21966074.656 6  86199588.475 6        38.200
  23300781.992 7 122446426.302 7        41.600    23300789.094 7  95412833.35249
        39.200    23300788.79749  23300784.512 3  91437283.56013        33.000
  23199238.297 7 121912828.696 7        41.100    23199242.570 7  94997036.22447
        29.400    23199242.26647  23199243.813 4  91038787.415 4        34.700
  21446004.313 9 112699530.779 9        48.300    21446008.801 9  87817832.52449
        39.400    21446008.36349  21446010.094 6  84158761.082 6        40.300
  24634452.828 5 129454917.647 5        35.300    24634457.531 5 100873963.77245
        19.900    24634457.25445
  21343479.344 9 112160742.186 9        53.500    21343485.613 9  87398018.71849
        54.900    21343485.56649  21343481.641 6  83756355.840 6        40.300
  20341922.164 9 106897583.145 9        53.000    20341928.523 9  83296831.58049
        55.000    20341927.70349  20341925.023 7  79826059.401 7        43.200
 21 12 14  0 11  0.0000000  0 10G16G21G15G08G26G18G23G07G10G27
  21163995.289 9 111217568.634 9        49.600                    86663029.08849
        42.200    21163998.26649
  23787211.148 6 125002641.363 6        40.200                    97404671.11546
        22.500    23787215.44546
  24574582.273 5 129140364.582 5        35.400    24574585.578 4 100628823.03247
        26.400    24574585.48447
  21951891.891 8 115357977.911 8        46.900    21951898.840 8  89889381.61149
        37.400    21951897.77749  21951894.320 6  86143940.530 6        38.500
  23321014.805 7 122552751.911 7        41.400    23321022.406 7  95495684.46749
        39.200    23321021.97349  23321018.598 3  91516682.570 3        33.600
  23216901.898 7 122005653.584 7        41.100    23216906.715 7  95069367.28347
        28.900    23216906.35947  23216907.867 4  91108104.650 4        34.000
  21451106.297 9 112726342.223 9        48.200    21451110.965 9  87838724.55949
        39.400    21451110.50449  21451111.930 6  84178782.609 6        39.400
  24634822.656 6 129456855.119 6        38.400    24634826.738 5 100875473.46646
        22.200    24634826.41846
  21335125.742 9 112116843.895 9        52.700    21335131.961 9  87363812.26349
        55.000    21335132.04749  21335127.930 6  83723574.669 6        40.500
  20337448.508 9 106874072.597 9        53.100    20337454.492 9  83278511.67749
        55.000    20337454.03149  20337450.844 7  79808502.839 7        43.100
 21 12 14  0 11 30.0000000  0 10G16G21G15G08G26G18G23G07G10G27
  21175528.891 9 111278178.425 9        49.100                    86710257.49949
        41.400    21175531.98049
  23771364.742 7 124919364.978 7        41.200                    97339780.47346
        24.000    23771367.32046
  24576913.969 3 129152620.171 3        33.300    24576918.277 4 100638372.85946
        24.300    24576917.68846
  21937752.227 8 115283674.462 8        47.500    21937759.473 9  89831482.83649
        37.600    21937758.48849  21937755.348 6  86088454.188 6        38.700
  23341279.313 6 122659240.619 6        40.800    23341286.227 7  95578662.67149
        37.700    23341285.97349  23341282.418 3  91596203.337 3        33.200
  23234585.984 6 122098585.853 6        40.900    23234590.945 7  95141782.01147
        28.200    23234590.41847  23234591.984 4  91177502.103 4        34.000
  21456320.133 8 112753740.981 8        47.800    21456324.645 9  87860074.24049
        39.900    21456324.14149  21456325.328 6  84199242.743 6        39.700
  24635287.820 5 129459300.889 5        36.600    24635291.832 6 100877379.27446
        21.300    24635291.97346
  21326873.031 9 112073476.676 9        52.800    21326879.414 9  87330019.63049
        55.100    21326879.47749  21326875.227 7  83691190.076 7        41.100
  20333048.930 9 106850954.096 9        53.000    20333055.148 9  83260497.25349
        55.000    20333054.69949  20333051.594 7  79791239.002 7        43.000
 21 12 14  0 12  0.0000000  0 10G16G21G15G08G26G18G23G07G10G27
  21187158.719 9 111339292.573 9        49.100                    86757878.89949
        42.000    21187161.75449
  23755554.031 7 124836281.650 7        41.600                    97275040.28146
        23.900    23755558.03146
  24579357.852 3 129165459.123 3        33.500    24579362.277 4 100648377.31646
        24.100    24579361.39146
  21923654.180 8 115209589.223 8        46.500    21923661.547 8  89773754.08549
        37.900    21923660.36349  21923657.570 6  86033130.831 6        38.600
  23361573.586 7 122765889.715 7        41.000    23361580.777 7  95661765.86049
        38.900    23361581.10549  23361576.973 3  91675843.923 3        32.700
  23252291.055 6 122191623.903 6        40.400    23252295.699 7  95214279.17547
        28.300    23252295.11747  23252297.125 4  91246978.543 4        34.600
  21461645.570 8 112781725.795 8        47.200    21461650.035 9  87881880.59649
        39.500    21461649.24249  21461650.508 6  84220140.506 6        39.500
  24635849.406 5 129462254.290 5        35.800    24635853.723 5 100879680.58945
        19.300    24635853.40245
  21318722.016 9 112030641.738 9        51.600    21318728.367 9  87296641.77149
        55.000    21318728.25449  21318723.957 6  83659202.961 6        40.900
  20328724.313 9 106828228.442 9        53.500    20328730.676 9  83242788.95349
        55.000    20328730.08249  20328727.055 7  79774268.571 7        43.200
 21 12 14  0 12 30.0000000  0 10G16G21G15G08G26G18G23G07G10G27
  21198883.711 9 111400909.232 9        48.700                    86805891.86649
        42.400    21198887.24649
  23739779.453 5 124753392.080 5        37.900                    97210451.07146
        21.100    23739784.20746
  24581910.938 5 129178881.051 5        35.700    24581915.406 3 100658835.98746
        24.000    24581915.00846
  21909598.156 8 115135723.049 8        46.700    21909604.852 8  89716196.03649
        37.900    21909604.10249  21909600.973 6  85977971.031 6        38.700
  23381898.836 6 122872696.754 6        40.000    23381905.758 7  95744992.11749
        38.200    23381906.02749  23381901.199 3  91755602.422 3        32.800
  23270015.453 6 122284766.186 6        40.800    23270020.246 7  95286857.54247
        28.200    23270019.55947  23270021.449 4  91316532.807 4        34.900
  21467081.859 8 112810295.349 8        47.100    21467086.418 9  87904142.58749
        39.000    21467086.03149  21467087.227 6  84241474.884 6        39.200
  24636508.477 6 129465714.777 6        38.700    24636512.145 5 100882377.03446
        20.100    24636510.69146
  21310672.406 9 111988340.277 9        53.500    21310678.777 9  87263679.61149
        54.900    21310678.59449  21310674.563 6  83627614.223 6        40.400
  20324474.742 9 106805896.491 9        53.200    20324481.090 9  83225387.43249
        55.100    20324480.46949  20324477.586 7  79757592.099 7        43.100
 21 12 14  0 13  0.0000000  0 10G16G21G15G08G26G18G23G07G10G27
  21210704.281 9 111463026.572 9        48.600                    86854294.97149
        42.100    21210707.61349
  23724043.258 6 124670696.837 6        39.200                    97146013.25146
        23.600    23724047.44946
  24584576.422 5 129192885.929 5        37.600    24584580.102 2 100669748.85547
        25.100    24584579.56347
  21895584.031 8 115062077.922 8        46.400    21895591.109 8  89658810.23349
        37.500    21895589.89549  21895587.301 6  85922976.308 6        39.000
  23402251.703 6 122979659.351 6        40.000    23402260.121 7  95828339.56749
        38.500    23402259.86349  23402255.719 3  91835477.016 3        32.200
  23287759.398 7 122378011.323 7        41.100    23287763.996 7  95359516.07947
        28.500    23287763.37147  23287765.004 4  91386163.874 4        34.500
  21472629.586 8 112839448.570 8        47.200    21472634.301 9  87926859.37949
        39.400    21472633.55549  21472635.113 6  84263245.156 6        39.500
  24637262.719 5 129469681.692 5        37.700    24637266.973 4 100885468.12345
        19.300    24637265.86345
  21302724.445 9 111946573.725 9        52.400    21302730.777 9  87231134.25449
        54.900    21302730.40249  21302726.531 7  83596424.894 7        41.100
  20320300.148 9 106783959.327 9        53.700    20320306.473 9  83208293.53449
        55.100    20320305.93849  20320303.043 7  79741210.452 7        43.100
 21 12 14  0 13 30.0000000  0 10G16G21G15G08G26G18G23G07G10G27
  21222619.570 9 111525642.801 9        49.100                    86903086.83149
        41.700    21222623.12949
  23708344.875 6 124588196.332 6        39.500                    97081727.21946
        22.900    23708348.31646
  24587351.945 5 129207473.556 5        35.500    24587356.660 3 100681115.86047
        26.700    24587356.47747
  21881612.031 8 114988654.988 8        46.000    21881618.875 8  89601597.56549
        37.500    21881617.84049  21881614.938 6  85868147.479 6        38.900
  23422636.898 6 123086774.615 6        40.900    23422643.840 7  95911806.00949
        38.400    23422643.16849  23422639.449 3  91915465.67613        32.600
  23305522.688 7 122471357.570 7        41.100    23305527.582 7  95432253.39747
        27.400    23305526.70747  23305527.891 3  91455870.508 3        33.400
  21478287.844 8 112869183.865 8        47.300    21478292.508 9  87950029.74149
        39.700    21478291.89849  21478293.359 6  84285450.108 6        39.600
  24638113.977 5 129474154.297 5        37.600    24638118.129 5 100888953.30146
        21.800    24638118.05946
  21294878.578 9 111905342.974 9        51.900    21294884.645 9  87199006.40749
        55.000    21294884.78149  21294880.434 6  83565635.727 6        40.200
  20316201.016 9 106762417.556 9        53.700    20316207.332 9  83191507.74349
        55.700    20316206.65249  20316203.844 7  79725124.052 7        43.200
 21 12 14  0 14  0.0000000  0 10G16G21G15G08G26G18G23G07G10G27
  21234630.063 9 111588756.276 9        48.800                    86952266.14249
        42.000    21234633.08249
  23692683.523 7 124505891.410 7        41.100                    97017593.56547
        25.700    23692685.80547
  24590239.531 5 129222643.906 5        37.400    24590242.902 4 100692936.89847
        28.600    24590243.94147
  21867682.758 8 114915455.860 8        46.300    21867689.707 8  89544559.29249
        37.700    21867688.61749  21867685.281 6  85813485.830 6        38.700
  23443047.656 6 123194040.731 6        40.100    23443055.961 7  95995389.98849
        38.400    23443055.23049  23443051.691 3  91995567.009 3        32.900
  23323304.313 6 122564803.980 6        40.500    23323309.578 7  95505068.73247
        27.200    23323308.57447  23323310.539 3  91525651.857 3        33.100
  21484056.953 8 112899500.584 8        47.900    21484061.742 9  87973653.16049
        39.900    21484061.28549  21484062.746 6  84308089.201 6        39.600
  24639061.750 5 129479132.236 5        37.400    24639065.480 5 100892832.19646
        20.900    24639064.95746
  21287134.711 9 111864649.831 9        51.900    21287141.051 9  87167297.48249
        55.000    21287141.16449  21287136.816 7  83535248.024 7        41.100
  20312177.148 9 106741272.653 9        53.600    20312183.586 9  83175031.18549
        55.100    20312182.93049  20312180.121 7  79709334.048 7        42.500
 21 12 14  0 14 30.0000000  0 10G16G21G15G08G26G18G23G07G10G27
  21246734.195 9 111652365.085 9        49.400                    87001831.43649
        41.900    21246737.50049
  23677057.680 6 124423782.317 6        39.200                    96953612.51446
        23.300    23677061.23846
  24593236.531 5 129238396.789 5        37.500    24593240.750 4 100705211.87347
        29.100    24593240.68447
  21853795.883 8 114842482.054 8        47.000    21853803.008 9  89487696.60449
        37.500    21853802.22349  21853799.082 6  85758992.413 6        39.300
  23463488.789 6 123301454.816 6        39.800    23463496.133 7  96079089.25349
        38.900    23463495.87549  23463491.824 3  92075778.819 3        32.900
  23341106.016 7 122658348.861 7        41.300    23341110.781 7  95577960.83547
        27.200    23341109.74247  23341111.531 3  91595506.755 3        33.900
  21489936.570 8 112930397.021 8        47.600    21489941.285 9  87997728.31549
        39.000    21489940.46549  21489942.027 6  84331161.211 6        39.400
  24640104.359 5 129484614.791 5        37.100    24640109.203 5 100897104.26046
        21.500    24640108.32046
  21279493.523 9 111824495.129 9        53.000    21279499.938 9  87136008.11249
        54.900    21279499.75049  21279495.871 6  83505262.360 6        40.800
  20308229.516 9 106720525.176 9        53.800    20308235.391 9  83158864.31849
        55.400    20308234.82449  20308232.195 7  79693840.759 7        43.000
 21 12 14  0 15  0.0000000  0 10G16G21G15G08G26G18G23G07G10G27
  21258932.453 9 111716467.002 9        49.600                    87051780.97449
        42.300    21258935.74249
  23661469.453 6 124341869.645 6        38.800                    96889784.48946
        22.200    23661473.50446
  24596346.016 5 129254731.417 5        36.900    24596349.117 5 100717940.18247
        29.800    24596349.59847
  21839952.711 8 114769734.184 8        46.800    21839959.617 9  89431009.95149
        38.400    21839958.57849  21839955.387 6  85704667.704 6        38.500
  23483956.125 6 123409014.173 6        40.000    23483963.652 6  96162901.73049
        37.000    23483962.99249  23483959.547 3  92156099.114 3        32.500
  23358925.633 7 122751990.418 7        41.100    23358930.738 7  95650928.27047
        27.500    23358929.91047  23358931.273 3  91665433.898 3        33.900
  21495926.109 8 112961871.678 8        47.600    21495930.527 9  88022254.02049
        39.400    21495930.13749  21495931.672 6  84354665.025 6        39.500
  24641243.617 6 129490600.800 6        38.100    24641247.371 5 100901768.66546
        21.300    24641247.44546
  21271955.047 9 111784879.859 9        52.300    21271961.184 9  87105139.08849
        55.000    21271961.21149  21271957.234 7  83475679.572 7        41.300
  20304356.945 9 106700175.811 9        53.500    20304362.984 9  83143007.66449
        55.000    20304362.43049  20304359.609 7  79678644.829 7        43.300
 21 12 14  0 15 30.0000000  0 10G16G21G15G08G26G18G23G07G10G27
  21271224.305 9 111781060.784 9        49.300                    87102113.77749
        41.800    21271227.37149
  23645920.680 6 124260154.342 6        39.900                    96826110.31546
        24.800    23645924.38746
  24599565.477 6 129271648.323 6        38.400    24599569.320 5 100731122.20448
        31.000    24599568.88748
  21826152.688 8 114697214.962 8        46.500    21826159.988 9  89374501.47549
        37.700    21826158.82849  21826155.684 6  85650513.760 6        39.200
  23504450.672 6 123516716.905 6        39.400    23504459.043 7  96246825.93349
        37.600    23504458.48849  23504454.699 3  92236526.470 3        32.400
  23376762.477 6 122845727.882 6        40.200    23376767.742 7  95723970.43047
        26.400    23376767.10947  23376768.863 4  91735432.656 4        34.100
  21502025.586 8 112993923.869 8        47.600    21502029.844 9  88047229.75349
        39.000    21502029.65649  21502030.934 6  84378600.104 6        39.200
  24642478.469 5 129497089.971 5        37.000    24642482.813 4 100906825.15746
        20.600    24642481.43446
  21264519.430 9 111745805.821 9        52.800    21264525.801 9  87074691.79449
        54.900    21264525.80949  21264521.789 7  83446500.918 7        41.400
  20300560.500 9 106680226.110 9        53.900    20300566.883 9  83127462.43849
        55.000    20300566.14849  20300563.328 7  79663747.309 7        43.000
 21 12 14  0 16  0.0000000  0 10G16G21G15G08G26G18G23G07G10G27
  21283609.211 9 111846143.993 9        48.800                    87152827.95749
        41.600    21283612.68049
  23630407.719 6 124178636.715 6        39.600                    96762590.10746
        22.900    23630410.85246
  24602895.453 5 129289146.822 5        35.700    24602897.934 5 100744757.44747
        29.300    24602898.39847
  21812396.109 8 114624924.885 8        46.300    21812403.520 8  89318171.55849
        38.800    21812402.18849  21812399.375 6  85596530.923 6        39.400
  23524973.844 6 123624560.076 6        39.900    23524980.828 7  96330859.56649
        37.700    23524980.30949  23524976.652 3  92317058.671 3        32.200
  23394617.992 6 122939559.378 6        39.900    23394623.543 7  95797085.85847
        26.500    23394622.37147  23394623.707 4  91805501.571 4        34.700
  21508234.031 8 113026551.740 8        47.700    21508238.668 9  88072654.07449
        39.200    21508238.35549  21508239.516 6  84402965.100 6        39.200
  24643808.891 5 129504081.816 5        36.900    24643812.848 5 100912273.30446
        21.100    24643812.76646
  21257186.844 9 111707273.663 9        52.800    21257193.574 9  87044666.74549
        55.000    21257193.22349  21257189.215 6  83417726.900 6        40.800
  20296840.453 9 106660676.504 9        53.200    20296846.645 9  83112228.97849
        55.600    20296846.05149  20296843.055 7  79649148.580 7        43.000
 21 12 14  0 16 30.0000000  0 10G16G21G15G08G26G18G23G07G10G27
  21296087.219 9 111911715.558 9        49.600                    87203922.66349
        41.700    21296090.20349
  23614933.242 6 124097317.413 6        39.800                    96699224.49647
        25.600    23614937.68447
  24606334.977 6 129307226.887 6        38.300    24606338.992 4 100758845.83848
        30.000    24606338.02048
  21798684.109 8 114552866.236 8        47.500    21798691.488 9  89262021.97149
        38.300    21798690.02349  21798686.777 6  85542720.900 6        39.400
  23545520.836 6 123732541.530 6        39.800    23545528.809 7  96415000.94249
        37.500    23545528.64849  23545524.508 3  92397694.206 3        32.000
  23412491.711 7 123033483.811 7        41.100    23412496.543 7  95870273.73747
        26.800    23412495.63347  23412497.754 4  91875639.941 4        34.500
  21514552.328 8 113059754.310 8        47.200    21514556.969 9  88098526.21049
        39.000    21514556.57049  21514557.758 6  84427759.199 6        39.200
  24645235.102 5 129511575.073 5        37.900    24645239.082 5 100918112.24946
        21.700    24645238.65246
  21249958.055 9 111669284.908 9        52.800    21249964.395 9  87015065.13849
        54.900    21249964.14149  21249960.117 6  83389358.685 6        40.700
  20293196.398 9 106641528.240 9        52.700    20293202.844 9  83097308.25249
        55.400    20293202.34049  20293199.348 7  79634849.550 7        42.700
 21 12 14  0 17  0.0000000  0 10G16G21G15G08G26G18G23G07G10G27
  21308657.227 9 111977772.926 9        50.000                    87255395.92749
        42.100    21308660.59849
  23599495.781 6 124016196.877 6        39.300                    96636013.74346
        24.400    23599499.89546
  24609885.680 5 129325888.232 5        37.200    24609890.102 5 100773387.13747
        28.700    24609890.16047
  21785016.148 8 114481039.970 8        47.800    21785022.941 8  89206053.46149
        38.700    21785022.22749  21785018.816 6  85489084.421 6        38.800
  23566095.086 7 123840658.704 7        41.300    23566102.996 6  96499248.07649
        37.500    23566102.69149  23566098.602 3  92478431.012 3        32.600
  23430382.391 6 123127499.624 6        39.400    23430387.488 7  95943532.78047
        26.300    23430386.44947  23430388.512 4  91945846.499 4        34.500
  21520979.406 8 113093530.058 8        47.300    21520984.348 9  88124844.97249
        39.100    21520983.95349  21520985.246 6  84452981.361 6        39.600
  24646756.977 6 129519569.297 6        38.800    24646759.691 5 100924341.48846
        22.000    24646760.03546
  21242832.813 9 111631840.503 9        53.400    21242838.926 9  86985887.68149
        54.900    21242838.74649  21242834.766 7  83361396.966 7        41.300
  20289629.336 9 106622782.088 9        53.700    20289635.621 9  83082700.85649
        55.200    20289635.02049  20289632.102 7  79620850.802 7        43.300
 21 12 14  0 17 30.0000000  0 10G16G21G15G08G26G18G23G07G10G27
  21321319.633 9 112044313.914 9        49.600                    87307246.03449
        41.300    21321322.89149
  23584097.594 6 123935275.536 6        39.900                    96572958.22146
        24.100    23584100.99246
  24613548.320 5 129345130.064 5        37.400    24613552.371 5 100788380.77648
        30.700    24613551.96148
  21771392.172 9 114409447.676 9        48.400    21771399.738 8  89150267.26349
        38.600    21771398.29349  21771394.977 6  85435622.649 6        39.000
  23586694.813 7 123948908.996 7        41.200    23586702.445 7  96583598.94549
        37.600    23586702.03549  23586698.426 3  92559267.250 3        32.400
  23448289.211 6 123221605.421 6        39.400    23448295.117 7  96016861.92747
        26.400    23448294.88347  23448296.184 3  92016120.28013        33.500
  21527515.703 9 113127877.499 9        48.100    21527520.391 9  88151609.21049
        39.200    21527519.68049  21527520.969 6  84478630.435 6        39.500
  24648372.609 5 129528063.440 5        37.500    24648376.957 5 100930960.27546
        20.600    24648376.10546
  21235810.773 9 111594941.507 9        53.500    21235817.301 9  86957135.22649
        55.000    21235817.07449  21235813.195 7  83333842.533 7        41.400
  20286138.664 9 106604438.885 9        53.800    20286144.898 9  83068407.44549
        55.000    20286144.45749  20286141.332 7  79607152.953 7        43.400
 21 12 14  0 18  0.0000000  0 10G16G21G15G08G26G18G23G07G10G27
  21334073.992 9 112111338.186 9        49.400                    87359472.73149
        41.500    21334077.42649
  23568736.883 6 123854554.816 6        39.900                    96510058.98746
        23.200    23568740.69546
  24617320.125 5 129364952.984 5        37.500    24617323.547 5 100803827.23448
        30.500    24617323.97348
  21757813.563 9 114338091.767 9        48.100    21757820.789 9  89094665.25649
        38.400    21757819.73449  21757816.734 6  85382337.388 6        39.400
  23607319.594 7 124057290.890 7        41.300    23607327.031 7  96668052.35149
        37.000    23607326.41449  23607322.652 3  92640201.798 3        32.600
  23466214.648 6 123315800.723 6        38.800    23466219.934 7  96090260.82247
        26.500    23466218.69947  23466220.520 3  92086460.875 3        33.700
  21534161.156 8 113162796.131 8        47.600    21534165.277 9  88178818.53849
        38.900    21534164.36749  21534165.770 6  84504706.018 6        39.300
  24650084.508 6 129537057.471 6        38.500    24650088.301 5 100937968.57846
        21.800    24650088.00046
  21228893.484 9 111558589.872 9        53.100    21228899.609 9  86928809.29249
        54.900    21228899.59049  21228895.449 6  83306696.848 6        40.900
  20282724.906 9 106586500.443 9        53.600    20282731.430 9  83054429.43549
        55.200    20282730.94549  20282727.809 7  79593757.374 7        42.800
 21 12 14  0 18 30.0000000  0 10G16G21G15G08G26G18G23G07G10G27
  21346919.656 9 112178841.612 9        48.600                    87412072.79449
        41.600    21346922.78949
  23553413.773 6 123774033.147 6        39.500                    96447314.89146
        23.800    23553417.87546
  24621201.445 5 129385354.872 5        36.900    24621206.699 5 100819724.80248
        30.700    24621206.36348
  21744280.328 9 114266971.727 9        48.500    21744286.922 9  89039247.05149
        38.300    21744285.85249  21744282.965 6  85329228.274 6        39.000
  23627967.742 7 124165799.984 7        41.400    23627975.316 7  96752604.88849
        38.200    23627975.14849  23627971.395 3  92721231.290 3        32.800
  23484156.078 6 123410082.165 6        40.400    23484161.270 7  96163726.85947
        25.400    23484159.81647  23484162.305 4  92156865.844 4        34.300
  21540913.344 8 113198282.623 8        46.600    21540918.234 9  88206470.34449
        38.700    21540917.25849  21540918.879 6  84531205.682 6        39.600
  24651890.141 5 129546548.755 5        37.100    24651895.086 5 100945364.38746
        21.300    24651894.39846
  21222080.070 9 111522784.779 9        53.700    21222086.133 9  86900909.22549
        55.600    21222086.05149  21222082.289 7  83279959.295 7        41.000
  20279388.336 9 106568965.725 9        53.300    20279394.703 9  83040766.01649
        55.100    20279394.18049  20279391.102 7  79580663.240 7        43.100
 21 12 14  0 19  0.0000000  0 10G16G21G15G08G26G18G23G07G10G27
  21359855.797 9 112246823.287 9        49.100                    87465045.51749
        41.400    21359859.34449
  23538128.594 6 123693712.401 6        39.400                    96384727.34846
        22.900    23538133.10546
  24625194.719 6 129406336.349 6        38.100    24625198.422 5 100836074.05148
        30.800    24625198.88748
  21730791.742 9 114196090.511 9        48.800    21730798.813 9  88984014.93449
        39.200    21730797.78149  21730795.191 6  85276297.518 6        39.400
  23648640.867 6 124274435.004 6        40.200    23648648.215 7  96837255.55349
        37.000    23648648.03949  23648643.332 3  92802354.873 3        32.200
  23502114.352 6 123504449.629 6        39.400    23502118.555 7  96237259.92447
        27.000    23502118.25047  23502120.320 4  92227335.018 4        34.200
  21547774.398 8 113234336.731 8        47.200    21547779.195 9  88234564.46049
        38.800    21547778.37549  21547779.973 6  84558129.210 6        39.700
  24653791.266 6 129556537.657 6        38.300    24653795.164 5 100953147.93246
        21.500    24653794.70346
  21215370.828 9 111487528.509 9        53.200    21215377.336 9  86873436.81349
        55.000    21215377.11749  21215372.969 6  83253631.569 6        40.700
  20276128.945 9 106551836.888 9        53.200    20276135.184 9  83027418.87249
        55.700    20276134.64849  20276131.742 7  79567872.220 7        43.400
 21 12 14  0 19 30.0000000  0 10G16G21G15G08G26G18G23G07G10G27
  21372882.961 9 112315281.136 9        49.200                    87518389.28949
        41.300    21372886.34449
  23522882.773 6 123613593.329 6        39.000                    96322296.90246
        23.300    23522887.51246
  24629298.172 5 129427897.084 5        37.500    24629301.957 4 100852874.59947
        29.900    24629301.52747
  21717349.695 9 114125448.986 9        48.700    21717356.277 9  88928969.59749
